{"meta":{"code":200,"errorType":"deprecated","errorDetail":"This endpoint will stop returning groups in the future. Please use a current version, see http://bit.ly/lZx3NU."},"notifications":[{"type":"notificationTray","item":{"unreadCount":0}}],"response":{"groups":[{"type":"places","name":"Places","items":[{"id":"4b55c2e8f964a520cdee27e3","name":"Colruyt","itemId":"v4b55c2e8f964a520cdee27e3","contact":{},"location":{"address":"Drongensesteenweg 197","city":"Gent","state":"Belgium","postalCode":"9000","country":"België","lat":51.055546,"lng":3.695247,"distance":3383},"categories":[{"id":"4bf58dd8d48988d118951735","name":"Grocery Store","pluralName":"Grocery Stores","icon":"https://foursquare.com/img/categories/shops/food_grocery.png","parents":["Shops & Services","Food and Drink Shops"],"primary":true}],"verified":false,"stats":{"checkinsCount":703,"usersCount":211,"tipCount":3},"hereNow":{"count":0}},{"id":"4bd6cb8ccfa7b713a10828da","name":"Colruyt","itemId":"v4bd6cb8ccfa7b713a10828da","contact":{},"location":{"address":"Edmond Van Hoorebekestraat 69","city":"Ledeberg","state":"Oost-Vlaanderen","postalCode":"9050","lat":51.036165,"lng":3.7486499547958374,"distance":1424},"categories":[{"id":"4bf58dd8d48988d118951735","name":"Grocery Store","pluralName":"Grocery Stores","icon":"https://foursquare.com/img/categories/shops/food_grocery.png","parents":["Shops & Services","Food and Drink Shops"],"primary":true},{"id":"4d954b0ea243a5684a65b473","name":"Convenience Store","pluralName":"Convenience Stores","icon":"https://foursquare.com/img/categories/shops/default.png","parents":["Shops & Services"]}],"verified":false,"stats":{"checkinsCount":447,"usersCount":181,"tipCount":1},"hereNow":{"count":0}},{"id":"4b448afbf964a5204ef625e3","name":"Colruyt","itemId":"v4b448afbf964a5204ef625e3","contact":{},"location":{"address":"Dendermondsesteenweg 409","city":"Sint-Amandsberg","state":"Oost-Vlaanderen","postalCode":"9040","country":"Belgium","lat":51.052829,"lng":3.7532255,"distance":921},"categories":[{"id":"4bf58dd8d48988d118951735","name":"Grocery Store","pluralName":"Grocery Stores","icon":"https://foursquare.com/img/categories/shops/food_grocery.png","parents":["Shops & Services","Food and Drink Shops"],"primary":true}],"verified":false,"stats":{"checkinsCount":200,"usersCount":76,"tipCount":0},"hereNow":{"count":0}},{"id":"4c4ff312f080a59391cfade1","name":"Colruyt","itemId":"v4c4ff312f080a59391cfade1","contact":{},"location":{"address":"Hundelgemsesteenweg 696","city":"Merelbeke","state":"Oost-Vlaanderen","postalCode":"9820","lat":50.99198795888739,"lng":3.745908737182617,"distance":6274},"categories":[{"id":"4bf58dd8d48988d1f9941735","name":"Food and Drink Shop","pluralName":"Food and Drink Shops","icon":"https://foursquare.com/img/categories/shops/default.png","parents":["Shops & Services"],"primary":true}],"verified":false,"stats":{"checkinsCount":181,"usersCount":60,"tipCount":0},"hereNow":{"count":0}},{"id":"4c592baf6407d13afb8eb128","name":"Colruyt","itemId":"v4c592baf6407d13afb8eb128","contact":{},"location":{"address":"ANTWERPSE STEENWEG  44-46","city":"Lochristi","state":"Vlaams Gewest","postalCode":"9080","country":"België","lat":51.0913698,"lng":3.8163763,"distance":7064},"categories":[{"id":"4bf58dd8d48988d118951735","name":"Grocery Store","pluralName":"Grocery Stores","icon":"https://foursquare.com/img/categories/shops/food_grocery.png","parents":["Shops & Services","Food and Drink Shops"],"primary":true}],"verified":false,"stats":{"checkinsCount":163,"usersCount":69,"tipCount":0},"hereNow":{"count":0}},{"id":"4c94b29882b56dcb4043d1aa","name":"Colruyt","itemId":"v4c94b29882b56dcb4043d1aa","contact":{},"location":{"city":"Wetteren","state":"Oost-Vlaanderen","postalCode":"9230","lat":51.00025294523931,"lng":3.8727664947509766,"distance":10591},"categories":[{"id":"4bf58dd8d48988d1fd941735","name":"Mall","pluralName":"Malls","icon":"https://foursquare.com/img/categories/shops/default.png","parents":["Shops & Services"],"primary":true},{"id":"4bf58dd8d48988d118951735","name":"Grocery Store","pluralName":"Grocery Stores","icon":"https://foursquare.com/img/categories/shops/food_grocery.png","parents":["Shops & Services","Food and Drink Shops"]}],"verified":false,"stats":{"checkinsCount":142,"usersCount":56,"tipCount":1},"hereNow":{"count":0}},{"id":"4c63a75ae1621b8d698c2653","name":"Colruyt Deinze","itemId":"v4c63a75ae1621b8d698c2653","contact":{},"location":{"address":"Kapellestraat 106-120","city":"Deinze","state":"Vlaams Gewest","postalCode":"9800","lat":50.981033233491665,"lng":3.5471677780151367,"distance":15577},"categories":[{"id":"4bf58dd8d48988d118951735","name":"Grocery Store","pluralName":"Grocery Stores","icon":"https://foursquare.com/img/categories/shops/food_grocery.png","parents":["Shops & Services","Food and Drink Shops"],"primary":true}],"verified":false,"stats":{"checkinsCount":138,"usersCount":46,"tipCount":0},"hereNow":{"count":0}},{"id":"4def2e5f81dcfb51be432cd1","name":"Colruyt Group Services","itemId":"v4def2e5f81dcfb51be432cd1","contact":{},"location":{"address":"E3-laan 80","city":"Deinze","postalCode":"9800","lat":50.9582299,"lng":3.5407584,"distance":17311},"categories":[{"id":"4bf58dd8d48988d124941735","name":"Office","pluralName":"Offices","icon":"https://foursquare.com/img/categories/building/default.png","parents":["Home / Work / Others"],"primary":true}],"verified":false,"stats":{"checkinsCount":108,"usersCount":11,"tipCount":0},"hereNow":{"count":0}},{"id":"4d3e9fb4d2c8f04dab687472","name":"Colruyt Wondelgem","itemId":"v4d3e9fb4d2c8f04dab687472","contact":{},"location":{"lat":51.08717679977417,"lng":3.708711862564087,"distance":4921},"categories":[{"id":"4bf58dd8d48988d118951735","name":"Grocery Store","pluralName":"Grocery Stores","icon":"https://foursquare.com/img/categories/shops/food_grocery.png","parents":["Shops & Services","Food and Drink Shops"],"primary":true}],"verified":false,"stats":{"checkinsCount":116,"usersCount":38,"tipCount":0},"hereNow":{"count":0}},{"id":"4cc96c8a2a759c7485ad7275","name":"Colruyt Eeklo","itemId":"v4cc96c8a2a759c7485ad7275","contact":{"phone":"3293775198","formattedPhone":"09 377 51 98"},"location":{"address":"Vrombautstraat 24","city":"Eeklo","state":"Belgium","postalCode":"9900","lat":51.1920644,"lng":3.5752914,"distance":19802},"categories":[{"id":"4bf58dd8d48988d1f6941735","name":"Department Store","pluralName":"Department Stores","icon":"https://foursquare.com/img/categories/shops/default.png","parents":["Shops & Services"],"primary":true}],"verified":false,"stats":{"checkinsCount":76,"usersCount":41,"tipCount":0},"hereNow":{"count":0}},{"id":"4b5315a8f964a520878e27e3","name":"Colruyt","itemId":"v4b5315a8f964a520878e27e3","contact":{},"location":{"address":"Bijlokestraat 2","city":"Zottegem","state":"Flemish Region","postalCode":"9620","lat":50.878272,"lng":3.828507,"distance":19870},"categories":[{"id":"4bf58dd8d48988d118951735","name":"Grocery Store","pluralName":"Grocery Stores","icon":"https://foursquare.com/img/categories/shops/food_grocery.png","parents":["Shops & Services","Food and Drink Shops"],"primary":true}],"verified":false,"stats":{"checkinsCount":74,"usersCount":26,"tipCount":0},"hereNow":{"count":0}},{"id":"4cdad4f6fc973704d90acb05","name":"Colruyt","itemId":"v4cdad4f6fc973704d90acb05","contact":{},"location":{"address":"Westkade 6","city":"Zelzate","state":"Flemish Region","postalCode":"9060","lat":51.2012711,"lng":3.8079062,"distance":17636},"categories":[{"id":"4bf58dd8d48988d118951735","name":"Grocery Store","pluralName":"Grocery Stores","icon":"https://foursquare.com/img/categories/shops/food_grocery.png","parents":["Shops & Services","Food and Drink Shops"],"primary":true}],"verified":false,"stats":{"checkinsCount":63,"usersCount":28,"tipCount":0},"hereNow":{"count":0}},{"id":"4c4479a8429a0f4711c3481e","name":"Colruyt Zottegem","itemId":"v4c4479a8429a0f4711c3481e","contact":{},"location":{"address":"Bijlokestraat 2","city":"Zottegem","state":"Belgium","postalCode":"9620","lat":50.8760405,"lng":3.8183061,"distance":19904},"categories":[{"id":"4bf58dd8d48988d118951735","name":"Grocery Store","pluralName":"Grocery Stores","icon":"https://foursquare.com/img/categories/shops/food_grocery.png","parents":["Shops & Services","Food and Drink Shops"],"primary":true}],"verified":false,"stats":{"checkinsCount":45,"usersCount":21,"tipCount":0},"hereNow":{"count":0}},{"id":"4b3ca4c7f964a520d98525e3","name":"Colruyt","itemId":"v4b3ca4c7f964a520d98525e3","contact":{},"location":{"address":"Botestraat","city":"Ghent","state":"Flemish Region","lat":51.087366,"lng":3.708886,"distance":4934},"categories":[{"id":"4bf58dd8d48988d1f6941735","name":"Department Store","pluralName":"Department Stores","icon":"https://foursquare.com/img/categories/shops/default.png","parents":["Shops & Services"],"primary":true}],"verified":false,"stats":{"checkinsCount":39,"usersCount":16,"tipCount":0},"hereNow":{"count":0}},{"id":"4b9b65c2f964a520c80436e3","name":"Colruyt","itemId":"v4b9b65c2f964a520c80436e3","contact":{},"location":{"address":"Vrombautstraat","city":"Eeklo","state":"Vlaams Gewest","postalCode":"9900","lat":51.183912,"lng":3.56687,"distance":19442},"categories":[],"verified":false,"stats":{"checkinsCount":2,"usersCount":2,"tipCount":0},"hereNow":{"count":0}},{"id":"4d691af09bd6a143a0785adf","name":"Colruyt Rooigemlaan","itemId":"v4d691af09bd6a143a0785adf","contact":{},"location":{"lat":51.039,"lng":3.708754,"distance":2560},"categories":[{"id":"4bf58dd8d48988d1f9941735","name":"Food and Drink Shop","pluralName":"Food and Drink Shops","icon":"https://foursquare.com/img/categories/shops/default.png","parents":["Shops & Services"],"primary":true}],"verified":false,"stats":{"checkinsCount":7,"usersCount":7,"tipCount":0},"hereNow":{"count":0}},{"id":"4dfc61d218a8eee4fe3c696d","name":"Colruyt","itemId":"v4dfc61d218a8eee4fe3c696d","contact":{},"location":{"city":"Wetteren","state":"Flemish Region","lat":51.009363,"lng":3.877743,"distance":10432},"categories":[{"id":"4bf58dd8d48988d118951735","name":"Grocery Store","pluralName":"Grocery Stores","icon":"https://foursquare.com/img/categories/shops/food_grocery.png","parents":["Shops & Services","Food and Drink Shops"],"primary":true}],"verified":false,"stats":{"checkinsCount":0,"usersCount":0,"tipCount":0},"hereNow":{"count":0}},{"id":"4da30af422a5f04d45191c55","name":"Colruyt Merelbeke","itemId":"v4da30af422a5f04d45191c55","contact":{},"location":{"address":"hundelgemsesteenweg","city":"Merelbeke","state":"Vlaams Gewest","postalCode":"9820","lat":51.0045361,"lng":3.7203303,"distance":5107},"categories":[],"verified":false,"stats":{"checkinsCount":2,"usersCount":2,"tipCount":0},"hereNow":{"count":0}},{"id":"4c41cba5520fa593741dcaac","name":"Colruyt Aalst","itemId":"v4c41cba5520fa593741dcaac","contact":{},"location":{"lat":50.967683,"lng":3.694588,"distance":9574},"categories":[{"id":"4bf58dd8d48988d1ff941735","name":"Miscellaneous Shop","pluralName":"Miscellaneous Shops","icon":"https://foursquare.com/img/categories/shops/default.png","parents":["Shops & Services"],"primary":true}],"verified":false,"stats":{"checkinsCount":0,"usersCount":0,"tipCount":0},"hereNow":{"count":0}}]}]}}
